X,Y,ID,SWID,IsSWFacility,Name,Type,Recycling,Trash,EWaste,HHW,FoodScraps,CD,CleanWood,LeafYardDebris,MaterialSpecifics,Address,Town,State,Zip,County,MailingAddress,MailingCity,MailingState,MailingZip,Telephone,Email,Website,Active,LastVisitDate,Latitude,Longitude
447556.416464447,-1213.5142701792,1,N/A,No,Holiday Brook Farm,Food Scraps Management Facility,NO,NO,NO,NO,YES,,YES,YES,,100 Holiday Cottage Rd,Dalton,MA,01226,,,,,,413-684-0444,dicken@holidaybrookfarm.com,http://www.holidaybrookfarm.com,1,,42.4872813739231,-73.1379336118698
489811.719301903,13970.2665425291,2,N/A,No,Martin's Farm Compost,Food Scraps Management Facility,NO,NO,NO,NO,YES,,YES,YES,,341 Plain Rd,Greenfield,MA,01301,,,,,,413-774-5631,bobwmartin@comcast.net,http://www.martinsfarmrecycling.com,1,,42.6257492955112,-72.6241993904114
516519.711000479,7661.90514466608,3,N/A,No,Clear View Composting,Food Scraps Management Facility,NO,NO,NO,NO,YES,,YES,YES,,159 Quabbin Blvd,Orange,MA,01364,,PO Box 556,Orange,MA,01364,978-544-5872,clearviewcomposting@aol.com,,1,,42.5687902888225,-72.2987723350525
526038.814511117,97118.4334373569,5,N/A,No,Always Something Farm,Food Scraps Management Facility,NO,NO,NO,NO,YES,,YES,YES,no meat or dairy food residuals,407 NH Route 10,Croydon,NH,03773,,122 Glidden Road,Croydon,NH,03773,603-863-6787,Gary@ASFarm.com,,1,,43.373829665408,-72.1786522865295
519095.18227241,47148.0217336956,6,N/A,No,City of Keene,Food Scraps Management Facility,NO,NO,NO,NO,NO,,YES,YES,,350 Marlboro Street,Keene,NH,03431,,,,,,"603-352-5739, ext 2",dwatson@ci.keene.nh.us,http://www.ci.keene.nh.us,1,,42.9241574789107,-72.2661244869232
433943.210310494,162825.533446208,8,AD060,Yes,Bridport Recycling Center,Recycling Center,YES,YES,NO,NO,YES,,NO,YES,scrap metal,Happy Valley Rd,Bridport,VT,05734,Addison,,,,,802-758-2483,,,1,2023/05/17 00:00:00+00,43.9627393,-73.32310629
452700.897156544,173087.548541882,9,AD840,Yes,Cook's Pit,Recycling Center,NO,NO,NO,NO,NO,,NO,NO,"Asphalt, Brick and Concrete recycling only",Route 116,Bristol,VT,05443,Addison,,,,,802-453-4678,,,1,2020/08/07 00:00:00+00,44.0565359999335,-73.0903029441834
451295.203124717,151886.152871588,13,AD183,Yes,Leicester Drop-off,Recycling Center,YES,YES,NO,NO,YES,,NO,YES,,2241 Fern Lake Rd,Leicester,VT,05752,Addison,,,,,802-247-5961,,,1,,43.86563996,-73.10588971
461146.981103705,181299.329009516,14,AD301,Yes,Lincoln Drop-off,Recycling Center,YES,YES,NO,NO,YES,,NO,YES,scrap metal,1111 Downingsville Rd,Lincoln,VT,05443,Addison,,,,,802-453-2980,,,1,2021/12/02 00:00:00+00,44.13088181,-72.98554226
445020.216308265,167791.210496871,15,N/A,No,Middlebury College  -College only compost facility,Food Scraps Management Facility,NO,NO,NO,NO,YES,,YES,YES,college material only,809 College Street,Middlebury,VT,05753,Addison,,,,,802-443-3087,recycling@middlebury.edu,http://www.middlebury.edu/offices/business/recycle/compost,1,,44.00825495,-73.18562815
449489.649719765,166011.056890354,16,AD010,Yes,Vermont Natural Ag. Products,Food Scraps Management Facility,NO,NO,NO,NO,YES,,YES,YES,Residents should bring materials to ACSWMD transfer station: (802) 388-2333,297 Lower Foote Street,Middlebury,VT,05753,Addison,,,,,802-388-1137,,,1,2024/06/26 00:00:00+00,43.99261601,-73.12971631
446223.546703458,170792.568097764,17,N/A,No,Good Point Recycling (private),Recycling Center,NO,NO,YES,NO,NO,NO,NO,NO,,2227 Pond Lane,Middlebury,VT,05753,Addison,,,,,,,https://goodpointrecycling.net/,1,,44.03536351,-73.17094558
446175.052439634,169759.579383704,18,AD002,Yes,"Casella Waste Management, Inc.",Transfer Station,YES,NO,NO,NO,NO,,NO,NO,,533 Exchange St,Middlebury,VT,05753,Addison,,,,,802-223-7221,,,1,2021/04/02 00:00:00+00,44.02605707,-73.17138547
448608.509671319,166173.403172287,19,AD401,Yes,Addison County SWMD Transfer Station,Hazardous Waste,YES,YES,YES,YES,YES,YES,YES,YES,,1223 Route 7 South,Middlebury,VT,05753,Addison,,,,,802-388-2333,,https://www.addisoncountyrecycles.org/about/us/hours-locations,1,2024/10/22 00:00:00+00,43.99404651,-73.1407103
450549.673565506,194949.065901214,20,AD302,Yes,Monkton Town Drop Off,Transfer Station,YES,YES,NO,NO,YES,,NO,YES,,4047 States Prison Hollow Rd,Monkton,VT,05469,Addison,,,,,802-453-3800,,,1,2023/05/17 00:00:00+00,44.25312174,-73.11922592
435048.977088514,142902.454797968,22,N/A,No,Seguin Services LLC,Transfer Station,YES,YES,NO,NO,YES,,NO,YES,,334 Rt 22A,Orwell,VT,05760,Addison,,,,,,,https://www.facebook.com/SeguinServicesLLC/,1,,43.78349811,-73.30693956
457714.795791134,163953.35234526,23,AD303,Yes,Ripton Recycling Center,Recycling Center,YES,YES,NO,NO,YES,,NO,YES,,Peddler's Bridge Rd,Ripton,VT,05766,Addison,,,,,8002-388-2286,,,1,2020/02/12 00:00:00+00,43.97461065,-73.02695596
434412.607698465,155098.155277525,24,AD304,Yes,Shoreham Recycling Center,Recycling Center,YES,YES,NO,NO,YES,,NO,YES,,28 School Rd,Shoreham,VT,05770,Addison,,,,,802-897-5841,,,1,,43.89319351,-73.31633137
455859.099289185,189955.312293418,25,AD305,Yes,Starksboro Drop-off,Recycling Center,YES,YES,NO,NO,YES,,NO,YES,,3904 rt 116,Starksboro,VT,05487,Addison,,,,,802-453-2639,,,1,2019/09/11 00:00:00+00,44.20853555,-73.05233901
442858.502300585,171920.880349856,26,AD307,Yes,Weybridge Drop-off,Recycling Center,YES,YES,NO,NO,YES,,NO,YES,,460 Quaker Village Rd,Weybridge,VT,05753,Addison,,,,,802-545-2450,,,1,2023/05/17 00:00:00+00,44.04528543,-73.21296748
443619.843190848,151157.924479198,27,AD308,Yes,Whiting Recycling Center,Recycling Center,YES,YES,NO,NO,YES,,NO,YES,,79 S. Main Street,Whiting,VT,05778,Addison,,,,,802-623-7813,,,1,2024/09/24 00:00:00+00,43.858531,-73.201251
443199.781226015,46823.0910603713,28,BN081,Yes,Bennington Transfer Station,Hazardous Waste,YES,YES,YES,YES,YES,YES,YES,YES,"Also accept: Tires, Universal Waste, Used Oil, Scrap Metal.",904 Houghton Lane,Bennington,VT,05201,Bennington,"205 South Street, Box 469",Bennington,VT,05201,802-651-5454,,,1,2024/07/25 00:00:00+00,42.919434,-73.195656
458818.178469918,80451.098184326,29,BN200,Yes,Northshire Transfer Station & Recycling Center,Transfer Station,YES,YES,YES,YES,YES,YES,YES,YES,,310 Tennis Way,East Dorset,VT,05251,Bennington,,,,,802-236-5973,,,1,2022/10/13 00:00:00+00,43.2230637,-73.0069044
464383.572980555,30283.8573797461,31,BN612,Yes,Readsboro Recycling Center,Transfer Station,YES,NO,NO,NO,NO,,NO,NO,,610 Phelps Rd,Readsboro,VT,05350,Bennington,,,,,802-423-7010,,,1,2024/10/16 00:00:00+00,42.77179826,-72.93522765
443138.235859522,47279.091643896,33,BN070,Yes,Long Trail Compost Facility,Food Scraps Management Facility,NO,NO,NO,NO,YES,NO,WOOD CHIPS ONLY,NO,,639 North Road,Shaftsbury,VT,05262,Bennington,,,,,802-447-1300,,,1,2022/08/29 00:00:00+00,42.9235368318227,-73.1964862346649
443001.028598768,51401.8871732346,35,BN980,Yes,TAM Transfer Station,Transfer Station,YES,YES,NO,NO,YES,YES,YES,YES,,Airport Road ,Shaftsbury,VT,05262,Bennington,,,,,802-688-8845,,,1,2024/07/09 00:00:00+00,42.96059909,-73.19858683
452745.300684928,29053.9469517721,36,BN762,Yes,Stamford Transfer Station,Transfer Station,YES,YES,YES,NO,YES,YES,YES,YES,,610 Mill Road,Stamford,VT,05352,Bennington,,,,,802-694-1361,,,1,2024/10/16 00:00:00+00,42.76011765,-73.07730229
451723.677973044,68743.6117064599,37,BN771,Yes,Manchester/Sunderland Transfer Station (Casella),Transfer Station,YES,YES,YES,YES,YES,YES,YES,YES,,4561 Sunderland Hill Road,Sunderland,VT,05250,Bennington,,,,,802-223-7221,,,1,2023/02/16 00:00:00+00,43.117306,-73.093224
466136.537279597,73556.1066730734,38,BN961,Yes,Winhall Transfer Station,Transfer Station,YES,YES,YES,YES,YES,,YES,YES,,66 Old Town Rd,Winhall,VT,05340,Bennington,,,,,802-297-2122,,,1,2022/10/05 00:00:00+00,43.1614005,-72.91639427
536961.288946474,207345.316973892,39,CA071,Yes,Barnet Transfer Station,Transfer Station,YES,YES,YES,YES,YES,,NO,NO,,900 Town Forest Road,Barnet,VT,05821,Caledonia,P.O. Box 15,Barnet,VT,05821,802-633-2256,,http://www.barnetvt.org/transferstation.php,1,2023/05/22 00:00:00+00,44.3654341552427,-72.0363128185272
541346.401056861,238452.631005187,41,CA400,Yes,Town of Burke,Recycling Center,YES,NO,YES,NO,NO,,NO,NO,,212 School Street,Burke,VT,05871,Caledonia,,,,,802-467-3954,,,1,2023/05/22 00:00:00+00,44.64514684,-71.97875321
528647.246109481,212826.127971643,42,CA112,Yes,Danville Recycling Facility,Recycling Center,YES,NO,YES,NO,NO,,NO,NO,,279 Highland Ave,Danville,VT,05828,Caledonia,,,,,802-684-3352,,,1,2022/05/10 00:00:00+00,44.41513028,-72.14027646
513415.928972104,222322.007691924,44,CA144,Yes,Hardwick/All Metals Recycling & Salvage Transfer Station,Transfer Station,YES,YES,NO,YES,YES,,YES,NO,,2141 Vermont Route 15,Hardwick,VT,05843,Caledonia,,,,,802-472-5155,,,1,2021/01/26 00:00:00+00,44.501020311703,-72.33128875494
538645.485147954,231079.504225857,46,CA045,Yes,Kingdom View Compost,Food Scraps Management Facility,NO,NO,NO,NO,YES,,WOOD CHIPS ONLY,YES,,2586 Pudding Hill Road,Lyndon,VT,05851,Caledonia,,,,,802-626-3265,,,1,,44.5789275,-72.01336012
539642.095791283,226551.686930794,47,CA384,Yes,Northeast Kingdom Waste Management District,Hazardous Waste,,,,,,,,,,224 Church Street,Lyndonville,VT,,Caledonia,,,,,802-626-3532,,,1,2022/09/01 00:00:00+00,44.5380758492242,-72.0012080669403
543479.708772497,243278.392894595,48,CA511,Yes,Newark Transfer Station,Transfer Station,YES,YES,NO,YES,YES,,NO,YES,,1354 Newark St,Newark,VT,05871,Caledonia,,,,,802-467-3336,,,1,2023/05/22 00:00:00+00,44.68839144,-71.95150433
526359.035223456,205538.273292131,49,CA571,Yes,Peacham Transfer Station,Transfer Station,YES,YES,YES,YES,YES,,NO,NO,,750 E Peacham Rd,Peacham,VT,05862,Caledonia,,,,,802-592-3218,,,1,2023/08/02 00:00:00+00,44.34963555,-72.16937667
534818.595644072,189032.568446072,50,CA040,Yes,Ryegate/Groton Recycling & Transfer Station,Transfer Station,YES,YES,YES,YES,YES,,YES,YES,,269 School Street,Ryegate,VT,05042,Caledonia,,,,,802-584-3880,,,1,2023/03/03 00:00:00+00,44.20070781,-72.06440841
537896.985897695,212306.616923807,51,CA721,Yes,St. Johnsbury Transfer Station,Transfer Station,YES,YES,YES,NO,YES,,YES,YES,,548 High Street,St. Johnsbury,VT,05819,Caledonia,,,,,,,,1,2024/08/07 00:00:00+00,44.4099544,-72.0242111
543535.665048141,208830.398594098,52,CA051,Yes,Waterford Transfer Station & Recycling Center,Transfer Station,YES,YES,YES,YES,YES,,NO,NO,,2727 Duck Pond Rd,Waterford,VT,05848,Caledonia,,,,,8002-748-2122,,,1,2023/03/03 00:00:00+00,44.37839906,-71.95367871
532683.592144761,232124.594727057,53,CA921,Yes,Wheelock/Sheffield Transfer Station,Transfer Station,YES,YES,NO,NO,YES,,NO,NO,,Route 122,Wheelock,VT,05851,Caledonia,,,,,802-626-9094,,,1,2024/06/17 00:00:00+00,44.5885922,-72.08844957
443069.333523544,219101.427529242,54,CH056,Yes,Burlington Drop Off -CSWD,Transfer Station,YES,YES,YES,NO,YES,,NO,YES,,339 Pine Street,Burlington,VT,05401,Chittenden,,,,,802-863-3827,,,1,2024/05/18 00:00:00+00,44.46987849,-73.21552723
443672.409663119,221663.194081438,55,N/A,No,McNeil Wood & Yard Waste Depot,Transfer Station,NO,NO,NO,NO,NO,,YES,YES,,111 Intervale Rd,Burlington,VT,05401,Chittenden,,,,,,,,1,,44.49302196,-73.2081527
445553.017534442,223969.709088585,56,CH172,Yes,Myers Recycling Facility,Recycling Center,YES,YES,NO,NO,NO,,YES,YES,,216 Red Can Drive,Colchester,VT,05446,Chittenden,,,,,802-655-4312,,,1,2022/12/01 00:00:00+00,44.5139128651879,-73.1848400831223
449613.459816788,223625.802207572,58,CH224,Yes,Gauthier Trucking Recycling Facility,Recycling Center,YES,NO,NO,NO,NO,,NO,NO,,5 Gauthier Drive,Essex Junction,VT,05452,Chittenden,,,,,802-879-4020,,,1,2023/12/13 00:00:00+00,44.5111433108213,-73.1337171792984
450439.5509841,224552.898580507,59,CH211,Yes,Essex Drop Off - CSWD,Transfer Station,YES,YES,YES,YES,YES,,YES,YES,,218 Colchester Road,Essex,VT,05451,Chittenden,,,,,802-872-8100,,,1,2023/08/01 00:00:00+00,44.5194879728395,-73.1233504414558
454124.220930561,202434.758505301,60,CH200,Yes,Hinesburg Transfer Station - CSWD,Transfer Station,YES,YES,YES,YES,YES,,YES,YES,,907 Beecher Hill Road,Hinesburg,VT,05461,Chittenden,,,,,802-872-8100,,,1,2024/03/14 00:00:00+00,44.32072582,-73.07511275
449934.412117052,236347.261007389,61,CH451,Yes,Milton Drop Off - CSWD ,Transfer Station,YES,YES,YES,YES,YES,,YES,YES,,36 Landfill Road,Milton,VT,05468,Chittenden,,,,,802-872-8100,,,1,2023/12/13 00:00:00+00,44.625568,-73.13093495
458843.542126046,214559.90575214,62,CH611,Yes,Richmond Drop Off - CSWD,Transfer Station,YES,YES,YES,YES,YES,,YES,YES,,80 Rogers Lane,Richmond,VT,05477,Chittenden,,,,,802-872-8100,,,1,2023/08/01 00:00:00+00,44.43008175,-73.01685468
446478.303791081,220461.562343467,64,CH080,Yes,CSWD Environmental Depot,Hazardous Waste,YES,YES,YES,YES,NO,,NO,NO,,1011 Airport Parkway,South Burlington ,VT,05403,Chittenden,,,,,802-863-0480,,,1,2023/06/01 00:00:00+00,44.48243848,-73.1727614
446411.093268152,220028.72685139,65,CH771,Yes,South Burlingon Drop Off - CSWD,Transfer Station,YES,YES,YES,YES,YES,,YES,YES,,87 Landfill Road,South Burlington ,VT,05403,Chittenden,,,,,802-872-8100,,,1,2023/01/12 00:00:00+00,44.47848173,-73.17361472
453647.605225561,219539.760235176,66,CH940,Yes,Green Mountain Compost (CSWD Composting Facility),Food Scraps Management Facility,NO,NO,NO,NO,YES,,WOOD CHIPS ONLY,YES,,1021 Redmond Road,Williston,VT,05495,Chittenden,,,,,802-660-4949,,https://www.greenmountaincompost.com/,1,2021/04/27 00:00:00+00,44.47457183,-73.08257946
450075.415419464,218543.847501252,67,CH954,Yes,CSWD Materials Recovery Facility,Recycling Center,YES,NO,NO,NO,NO,,NO,NO,,357 Avenue C,Williston,VT,05495,Chittenden,1021 Redmond Road,Williston,VT,05495,802-872-8100,,www.cswd.net,1,2021/06/24 00:00:00+00,44.4653960344317,-73.1274354457855
450057.96596279,218343.95813128,68,CH045,Yes,"All Cycle Waste, Inc. Transfer Station",Transfer Station,YES,YES,NO,NO,NO,YES,YES,NO,,220 Avenue B,Williston,VT,05495,Chittenden,,,,,802-864-3615,,,1,2023/11/07 00:00:00+00,44.46355955,-73.12756489
454302.349533201,219868.498227872,70,CH930,Yes,CSWD - Williston Transfer Station,Transfer Station,YES,YES,YES,YES,YES,,YES,YES,,1492 Redmond Rd,Williston,VT,05495,Chittenden,,,,,802-872-8100,,,1,2024/09/24 00:00:00+00,44.4775539053407,-73.0744457244873
454279.73184676,220046.454284172,71,CH955,Yes,Burlington Area Transfer Station,Transfer Station,YES,YES,NO,NO,YES,,NO,YES,,1496 Redmond Rd,Williston,VT,05495,Chittenden,,,,,802-244-1100,,,1,2022/12/15 00:00:00+00,44.47915413,-73.07472996
548181.934342182,257936.376390411,72,ES410,Yes,Brighton Recycling Facility,Recycling Center,YES,NO,NO,NO,NO,YES,YES,YES,,621 Railroad Street,Brighton,VT,05846,Essex,,,,,802-626-3532,,https://brightonvt.org/waste-management-services/,1,2024/06/17 00:00:00+00,44.8200205736505,-71.8907922506332
578236.258808974,268612.541848639,73,ES900,Yes,Canaan Transfer Station,Transfer Station,YES,YES,YES,YES,YES,,NO,NO,,186 Route 102,Canaan,VT,05903,Essex,,,,,802-266-3370,,,1,2024/06/19 00:00:00+00,44.91344726,-71.50919996
549543.877017066,216285.126531952,74,ES101,Yes,Concord Transfer Station,Transfer Station,YES,YES,YES,YES,YES,,NO,NO,,100 Brook Rd,Concord,VT,05824,Essex,,,,,802-695-2220,,,1,2023/11/14 00:00:00+00,44.4450979265143,-71.8775635957718
548236.242875085,237955.821557605,75,ES061,Yes,East Haven Drop Off,Transfer Station,YES,YES,YES,YES,YES,,NO,YES,,58 Community Building Rd,East Haven,VT,05837,Essex,,,,,802-467-3772,,,1,2022/05/10 00:00:00+00,44.64018012,-71.89197642
566591.900832447,218248.524044816,76,ES391,Yes,Lunenburg Transfer Station,Transfer Station,YES,YES,YES,YES,YES,,NO,YES,,47 Transfer Station Rd,Lunenburg,VT,05906,Essex,,,,,802-892-5959,,,1,2022/07/13 00:00:00+00,44.4613775,-71.66322175
555350.802712727,278642.882902689,77,ES033,Yes,Norton Drop Off,Transfer Station,YES,YES,YES,YES,YES,,NO,NO,,249 Rt 114 S,Norton,VT,05907,Essex,,,,,802-822-9935,,,1,2020/03/04 00:00:00+00,45.00578456,-71.79789073
476291.139292607,254176.845767107,78,N/A,No,Bakersfield Transfer Station,Transfer Station,YES,YES,YES,NO,YES,,NO,NO,,380 Main St,Bakersfield,VT,05441,Franklin,,,,,,,,1,,44.787429,-72.79962
460513.829565364,246864.344142718,79,FR560,Yes,Clokey/Crawford Compost Facility,,NO,NO,NO,NO,NO,,NO,NO,animal offal or carcasses only,720 Buck Hollow Road,Fairfax,VT,05454,Franklin,,,,,802-782-4833,,,1,,44.7208807843076,-72.9983997344971
456243.428811138,271262.63774003,81,FR311,Yes,Casella Transfer Station - Highgate,Transfer Station,YES,YES,YES,YES,YES,,NO,YES,,2 Transfer Station Road,Highgate,VT,05459,Franklin,,,,,802-223-7221,,,1,2023/09/01 00:00:00+00,44.94015494,-73.05438125
491522.190826776,264273.337031746,83,FR550,Yes,Montgomery Drop Off,Transfer Station,YES,YES,YES,NO,YES,,YES,YES,,86 Mountain Rd,Montgomery Center,VT,05471,Franklin,,,,,802-524-5986,,,1,2023/04/20 00:00:00+00,44.87858586,-72.60732622
453668.485195876,258978.510811574,84,FR540,Yes,St. Albans City Drop Off,Transfer Station,YES,YES,NO,NO,YES,,NO,YES,,83 Rewes Drive,St. Albans,VT,05478,Franklin,,,,,802-524-5986,,,1,2024/05/16 00:00:00+00,44.8294869175808,-73.0859470367432
453250.7058446,261337.505338091,85,FR580,Yes,Hudak Farm Composting Facility,,,,,,YES,,YES,,,599 Route 7,Swanton,VT,05488,Franklin,,,,,802-527-7956,,,1,2020/12/21 00:00:00+00,44.8506512028972,-73.0913758277893
438917.347003347,273693.93394194,86,GI011,Yes,Alburg Transfer Station,Transfer Station,YES,YES,YES,YES,YES,YES,YES,YES,,260 Dump Road,Alburgh,VT,05440,Grand Isle,,,,,802-796-6078,,alburghtransferstation.com,1,2023/08/22 00:00:00+00,44.9608232,-73.2742027
434516.145736368,242808.339812226,87,GI251,Yes,Grand Isle Transfer Station,Transfer Station,YES,YES,NO,YES,YES,,YES,YES,,22 Hanson Lane,Grand Isle,VT,05458,Grand Isle,,,,,8002-372-8830,,,1,2023/08/31 00:00:00+00,44.682533,-73.326019
435781.669026877,254431.339930354,88,GI421,Yes,North Hero Drop Off,Transfer Station,YES,YES,YES,NO,YES,,YES,YES,,362 West Shore Road,North Hero,VT,05474,Grand Isle,,,,,802-372-4812,,http://www.nwswd.org/index.php?option=com_content&task=view&id=37,1,2023/03/29 00:00:00+00,44.787154,-73.3114931
466385.257393595,237841.095864272,89,LA121,Yes,Cambridge Transfer Station,Transfer Station,YES,YES,NO,NO,YES,,NO,NO,,rt 104,Cambridge,VT,05444,Lamoille,,,,,802-223-7045,,,1,2022/10/31 00:00:00+00,44.63995584,-72.92365072
497377.244877208,245810.603274329,90,LA950,Yes,Lamoille District Transfer Station,Transfer Station,YES,YES,NO,NO,YES,,NO,NO,,3625 Vermont 100,Eden Mills,VT,05653,Lamoille,,,,,802-888-7317,,,1,,44.712464048711,-72.5331437587738
490782.316594604,233015.48068043,91,LA050,Yes,Hyde Park Recycle Drop-off Depot,Transfer Station,YES,YES,YES,NO,YES,,NO,NO,,Rt 100,Hyde Park,VT,05655,Lamoille,,,,,802-223-7221,,,1,2024/09/18 00:00:00+00,44.59726092,-72.61605193
490704.451579529,239605.052505388,92,LA331,Yes,Lamoille District Transfer Station,Transfer Station,YES,YES,YES,NO,YES,YES,YES,YES,,941 Wilson Rd,Johnson,VT,05656,Lamoille,,,,,802-635-9246,,,1,2023/01/24 00:00:00+00,44.6565501455554,-72.6172256469727
489929.356441391,225682.858898995,93,LA931,Yes,Lamoille Regional Solid Waste Management District (Morrisville),Transfer Station,YES,YES,YES,NO,YES,NO,NO,NO,,832 Cochran Road,Morrisville,VT,,Lamoille,,,,,802-888-7317,,,1,2022/05/19 00:00:00+00,44.531296,-72.626694
477014.358445551,226049.090761326,95,LA771,Yes,Lamoille District Transfer Station,Transfer Station,YES,YES,YES,NO,YES,YES,YES,YES,,370 Mountain Road,Stowe,VT,05672,Lamoille,,,,,802-253-7350,,,1,2023/12/20 00:00:00+00,44.5343118,-72.7891521
501930.764357191,228031.057113123,97,LA921,Yes,Wolcott Transfer Station,Transfer Station,YES,YES,YES,YES,YES,,YES,YES,,Gulf Rd,Wolcott,VT,05680,Lamoille,,,,,802-888-2746,,,1,2022/10/31 00:00:00+00,44.55248781,-72.47573207
530299.40054238,167020.968096903,98,OG093,Yes,Bradford Recycling Depot,Recycling Center,YES,NO,NO,NO,NO,,NO,NO,,143 Fairground Road,Bradford,VT,05033,Orange,,,,,802-222-4727,,,1,2020/04/30 00:00:00+00,44.00278602,-72.12219345
504626.39497723,168553.151910098,99,OG131,Yes,Chelsea Transfer Station,Transfer Station,YES,YES,NO,YES,YES,,NO,NO,,72 Washington Turnpike,Chelsea,VT,05038,Orange,,,,,802-685-4460,,,1,2023/02/28 00:00:00+00,44.0171617293612,-72.4423080682755
517945.164742893,168264.781476128,100,OG170,Yes,Cookeville Compost,Food Scraps Management Facility,NO,NO,NO,NO,YES,,WOOD CHIPS ONLY,YES,,587 Abe Jacobs Road,Corinth,VT,05039,Orange,,,,,802-439-5563,,,1,2020/04/30 00:00:00+00,44.01441705,-72.27624621
519993.482807671,172370.61596121,101,OG102,Yes,Corinth Recycling Facility,Recycling Center,YES,NO,YES,NO,YES,,NO,NO,,2628 Goose Green Rd,Corinth,VT,05039,Orange,,,,,802-439-5850,,,1,2019/09/23 00:00:00+00,44.0513389348467,-72.2504695353784
527699.870417675,155743.082205919,102,OG950,Yes,Fairlee Transfer Station,Transfer Station,YES,YES,NO,YES,YES,,NO,NO,,Dump Rd,Fairlee,VT,05045,Orange,,,,,802-333-9653,,,1,2023/02/28 00:00:00+00,43.90135906,-72.15523533
535322.11989181,175623.758461908,103,OG083,Yes,Newbury Recycling Center,Recycling Center,YES,NO,NO,NO,NO,,NO,NO,,26 Cross Street,Newbury,VT,05051,Orange,,,,,802-866-5521,,,1,2023/02/28 00:00:00+00,44.0800362483377,-72.0590230822563
487556.260529018,155863.61092867,104,OG671,Yes,Randolph Transfer Station,Transfer Station,YES,YES,YES,NO,YES,,NO,NO,,Landfill Road,Randolph,VT,05060,Orange,,,,,802-223-7221,,,1,2023/07/19 00:00:00+00,43.90286382,-72.65493895
511532.578736312,148551.184903609,105,OG200,Yes,Strafford Drop Off,Recycling Center,YES,NO,NO,YES,NO,,NO,NO,,159 VT Rt 132,Strafford,VT,05072,Orange,,,,,802-765-4411,,,1,2022/01/06 00:00:00+00,43.83710228,-72.35655326
520304.871997548,149161.037899228,106,OG010,Yes,Thetford Drop Off,Transfer Station,YES,YES,NO,NO,YES,,NO,NO,,4659 Vermont Route 113,Thetford,VT,05074,Orange,,,,,802-785-2922,,http://www.thetfordvermont.us/departments/recycling-center/,1,2024/01/19 00:00:00+00,43.8424047381137,-72.247542142868
499485.428761438,150252.229890473,107,OG841,Yes,Tunbridge Transfer Station,Transfer Station,YES,YES,NO,NO,YES,,NO,NO,,Rt 110,Tunbridge,VT,05077,Orange,,,,,802-889-5521,,,1,2024/04/18 00:00:00+00,43.85248312,-72.50637932
514186.973310959,163377.979475254,108,OG011,Yes,Vershire Drop Off,Transfer Station,YES,YES,NO,NO,NO,,NO,NO,,6894 Rt 113,Vershire,VT,05079,Orange,,,,,802-685-2227,,,1,,43.97048896,-72.32322851
496477.389918052,178507.884378244,110,OG941,Yes,Williamstown Trash Depot,Transfer Station,YES,YES,YES,NO,YES,,NO,YES,,2470 VT Rt 14,Williamstown,VT,05679,Orange,PO Box 646,Williamstown,VT,05679,802-8390-0064 or 802-476-5735,,http://williamstownvt.org/transfer-station/,1,2020/01/29 00:00:00+00,44.1067832336218,-72.5439808341113
509379.112877715,247594.847730269,111,OL030,Yes,Albany Drop Off Center,Transfer Station,YES,NO,NO,NO,NO,,NO,NO,,1030 Main St,Albany,VT,05820,Orleans,,,,,802-755-6100,,,1,2022/05/10 00:00:00+00,44.72846322,-72.38155638
509702.107154127,248784.340165792,112,OL050,Yes,KNS Tire Transfer Station,Transfer Station,NO,NO,NO,NO,NO,,NO,NO,tires only,260 Main Street,Albany,VT,05820,Orleans,,,,,802-755-9278,,,1,2021/02/17 00:00:00+00,44.73919819,-72.37745788
522680.927312259,253939.778647248,113,OL071,Yes,Barton Recycling Center,Recycling Center,YES,NO,NO,NO,NO,,NO,NO,,May Farm Rd,Barton,VT,05822,Orleans,,,,,802-525-3033,,,1,2022/02/01 00:00:00+00,44.78532553,-72.21340293
529066.033994,256010.165350088,114,OL060,Yes,Brownington Recycling Center,Recycling Center,YES,NO,NO,NO,NO,,NO,NO,,645 Evansville Road,Brownington,VT,05860,Orleans,,,,,802-754-8401,,,1,2022/02/01 00:00:00+00,44.80365449,-72.1325596
521992.942147522,267639.242923986,115,OL510,Yes,NEWSVT Inc. (New England Waste Services of VT Inc),Transfer Station,YES,YES,NO,NO,YES,,NO,NO,,21 Landfill Lane,Coventry,VT,05825,Orleans,,,,,802-334-8300,,,1,2024/08/23 00:00:00+00,44.90860132,-72.22148249
510187.290171912,237428.420814003,116,OL100,Yes,Lamoille District Transfer Station,Transfer Station,YES,YES,NO,NO,YES,NO,NO,NO,,Creek Road,Craftsbury,VT,05826,Orleans,,,,,802-888-7317,,,1,2021/02/17 00:00:00+00,44.6369560781307,-72.3716023564339
528628.185645146,272555.109304607,117,OL960,Yes,Derby Drop Off,Transfer Station,YES,NO,NO,YES,YES,,NO,NO,,3427 US Route 5,Derby,VT,05829,Orleans,,,,,802-766-4906,,,1,2021/02/17 00:00:00+00,44.95259965,-72.13715311
529601.225091009,275437.791088382,118,OL965,Yes,Derby Stump Dump,Transfer Station,NO,NO,NO,NO,NO,,YES,YES,,1008 Beebe Rd,Derby,VT,05829,Orleans,,,,,802-766-4906,,,1,2021/02/17 00:00:00+00,44.97850683,-72.12471365
524274.332959416,240588.482214189,119,OL073,Yes,Glover Recycling Center,Recycling Center,YES,NO,NO,NO,YES,,NO,NO,,1600 Dry Pond Road,Glover,VT,05839,Orleans,,,,,802-525-6227,,,1,2024/04/18 00:00:00+00,44.66507937,-72.1938558
516256.983497391,231051.375304902,120,OL020,Yes,Greensboro Drop Off,Transfer Station,YES,YES,NO,NO,YES,,NO,NO,,81 Lauredon Avenue,Greensboro,VT,05841,Orleans,P.O. Box 119,Greensboro,VT,05841,802-533-2911,,http://www.greensborovt.org/resources/,1,2023/11/16 00:00:00+00,44.579475,-72.2953409
539223.675477891,274222.68617931,121,OL200,Yes,Holland Drop Off,Transfer Station,YES,NO,YES,YES,NO,,NO,NO,,3157 Valley Rd,Holland,VT,05830,Orleans,,,,,802-895-4440,,,1,2022/03/23 00:00:00+00,44.96705002,-72.00281137
504853.425944817,271803.925283413,123,OL045,Yes,Jay/Troy Recycling Center,Recycling Center,YES,NO,NO,NO,YES,,NO,NO,,1375 Cross Road,Jay,VT,05859,Orleans,,,,,802-988-2996,,,1,2023/03/31 00:00:00+00,44.94639734,-72.43845489
538870.506614791,268719.555706713,124,OL461,Yes,Morgan Transfer Station,Transfer Station,YES,YES,YES,YES,YES,,YES,YES,,285 Hatton Heights Rd,Morgan,VT,05853,Orleans,,,,,802-895-2927,,,1,2024/04/18 00:00:00+00,44.91764215,-72.0077144
522585.07636562,269919.418251929,125,OL080,Yes,Newport Drop Off,Transfer Station,YES,NO,YES,NO,NO,,NO,NO,,651 Coventry Street,Newport,VT,,Orleans,,,,,802-334-2124,,,1,2022/03/23 00:00:00+00,44.92905283,-72.21389335
515309.010587233,272231.56493834,126,OL990,Yes,Newport Center Recycling Center,Recycling Center,YES,NO,NO,NO,YES,,NO,NO,,4091 W. Main Street,Newport Center,VT,05857,Orleans,,,,,802-334-6442,,,1,2022/03/23 00:00:00+00,44.9500958965444,-72.3060277104378
533817.119987721,265723.744052773,130,OL072,Yes,Austins Rubbish Recycling,Recycling Center,YES,NO,NO,NO,NO,,NO,NO,,108 Crawford Hill Road,West Charleston,VT,05872,Orleans,,,,,802-895-4889,,,1,2020/07/28 00:00:00+00,44.89090706,-72.07190608
506161.35437526,265782.003357582,131,OL980,Yes,Westfield Drop Off,Transfer Station,YES,YES,YES,YES,YES,,NO,NO,,757 Rt 100 N,Westfield,VT,05874,Orleans,,,,,802-744-2484,,,1,2022/08/03 00:00:00+00,44.89220067,-72.42204745
538672.808983943,245092.509614625,132,OL911,Yes,Westmore Transfer Station,Transfer Station,YES,YES,YES,YES,YES,,YES,YES,,6988 Rt 5A,Westmore,VT,05860,Orleans,,,,,802-525-3007,,,1,2022/08/03 00:00:00+00,44.70498591,-72.01198344
434658.741092576,134283.788006991,135,RU061,Yes,Benson Transfer Station,Transfer Station,YES,YES,YES,YES,YES,,NO,YES,,2549 Stage Road,Benson,VT,05731,Rutland,,,,,802-537-2611,,,1,2024/02/28 00:00:00+00,43.70585115,-73.3106888
455133.787218071,141748.117616605,136,RU960,Yes,Markowski Recycling Facility,Recycling Center,NO,NO,NO,NO,NO,NO,YES,YES,"Asphalt, Brick and Concrete recycling only",2359 Franklin Street,Brandon,VT,05733,Rutland,P.O. Box 69,Florence,VT,05744,802-483-6469,,http://markowskiex.com/mark/recycling-facility/,1,2023/06/28 00:00:00+00,43.7745887703272,-73.0573455410004
451816.563039489,143949.024521983,137,RU081,Yes,Brandon Transfer Station,Transfer Station,YES,YES,YES,YES,YES,,YES,YES,,Corona St,Brandon,VT,,Rutland,,,,,,,,1,2024/07/19 00:00:00+00,43.79415638,-73.09867231
445822.550738869,122328.616798852,138,RU105,Yes,Hadeka Stone Recycling Center,Recycling Center,NO,NO,NO,NO,NO,,NO,NO,"Asphalt, Brick and Concrete recycling only",460 Staso Road,Castleton,VT,05735,Rutland,,,,,802-468-5472,,,1,2024/02/22 00:00:00+00,43.5992482,-73.17104475
445234.860919146,122544.494732766,139,RU101,Yes,Castleton Transfer Station,Transfer Station,YES,YES,YES,YES,YES,,YES,YES,,Staso Road,Castleton,VT,05735,Rutland,,,,,802-468-5319,,,1,2024/02/22 00:00:00+00,43.60106399,-73.17832319
463232.623154494,134365.490336457,140,RU141,Yes,Chittenden Transfer Station,Transfer Station,YES,YES,YES,NO,YES,,NO,YES,,300 Holden Rd,Chittenden,VT,05737,Rutland,,,,,802-483-6647,,,1,2024/08/09 00:00:00+00,43.7085551924176,-72.9561710357666
461792.360833483,110697.24265495,141,RU131,Yes,Clarendon Transfer Station,Transfer Station,YES,YES,YES,YES,YES,,YES,YES,,Route 7B,Clarendon,VT,05759,Rutland,,,,,802-775-4274,,,1,2024/02/22 00:00:00+00,43.49546933,-72.97238286
447461.859770129,168249.159428108,143,RU151,Yes,Danby Transfer Station,Transfer Station,YES,YES,YES,YES,YES,,NO,YES,,Town Garage,Danby,VT,05739,Rutland,,,,,802-293-5136,,,1,2024/01/05 00:00:00+00,44.01259037,-73.15521689
437143.201556518,121582.112281239,144,RU033,Yes,Fair Haven Transfer Station,Transfer Station,YES,YES,YES,YES,YES,YES,YES,YES,"Tires, Used Waste Oil, Scrap Metal, Household and Automobile Batteries",175 Fair Haven Avenue,Fair Haven,VT,05743,Rutland,3 North Park Place,Fair Haven,VT,05743,802-265-8291,,http://fairhavenvt.org/?page_id=34,1,2023/12/19 00:00:00+00,43.5917913776771,-73.2784062623978
474656.726989971,133190.24893442,145,RU761,Yes,Killington Transfer Station,Transfer Station,YES,YES,YES,YES,YES,,NO,NO,,River Road,Killington,VT,05751,Rutland,,,,,802-422-3241,,,1,2024/04/03 00:00:00+00,43.69848757,-72.81442383
449992.549566864,109763.495042117,146,RU311,Yes,Middletown Springs Transfer Station,Transfer Station,YES,YES,YES,YES,YES,,NO,YES,,Firehouse Lane,Middletown Springs,VT,05757,Rutland,,,,,802-235-2220,,,1,2023/05/03 00:00:00+00,43.48639799,-73.11822643
472548.908947394,104567.629779179,147,RU043,Yes,Mount Holly Transfer Station,Transfer Station,YES,YES,YES,NO,YES,NO,NO,YES,,36 Sharon Lane,Mount Holly,VT,05758,Rutland,,,,,802-259-2391,,,1,2023/06/28 00:00:00+00,43.44084669,-72.83907442
459958.889969492,96120.2975546375,148,RU501,Yes,Mount Tabor Transfer Station,Transfer Station,YES,YES,NO,NO,YES,NO,NO,NO,,route 7,Mount Tabor,VT,05739,Rutland,,,,,802-293-5282,,,1,2023/10/04 00:00:00+00,43.36419033,-72.99397406
463572.708124287,119820.014186825,149,RU724,Yes,Hubbard Brothers Transfer Station,,YES,YES,YES,NO,YES,YES,YES,YES,,1678 Cold River Rd,North Clarendon,VT,05759,Rutland,,,,,802-773-2259,,,1,2024/10/04 00:00:00+00,43.5777327548337,-72.9509890079498
457010.834801266,134424.840094348,150,RU461,Yes,Pittsford Transfer Station,Transfer Station,YES,YES,YES,YES,YES,,YES,YES,,Depot Hill Rd,Pittsford,VT,05763,Rutland,,,,,802-483-6500,,,1,2024/02/28 00:00:00+00,43.70875293,-73.03344093
443025.294121607,114307.560115133,151,RU581,Yes,Poultney Transfer Station,Transfer Station,YES,YES,YES,YES,YES,,YES,YES,,Hillside Drive,Poultney,VT,05764,Rutland,,,,,802-287-9751,,,1,2020/12/22 00:00:00+00,43.52684523,-73.20478956
457707.880184767,129942.785790534,152,RU601,Yes,Proctor Transfer Station,Transfer Station,YES,YES,YES,YES,YES,,NO,YES,,Deere Lane,Proctor,VT,05765,Rutland,,,,,802-459-3333,,,1,2024/02/28 00:00:00+00,43.668507988344,-73.0243688821793
460499.885537193,123348.290127659,153,RU999,Yes,East Coast Rubbish Removal,Transfer Station,YES,YES,NO,NO,YES,,NO,NO,,37 Water Street,Rutland,VT,,Rutland,,,,,802-353-6118,,,1,2024/04/03 00:00:00+00,43.60930091,-72.9893346
460101.542775219,122884.00842606,154,RU003,Yes,Rutland County SWMD Materials Recovery Fac.,Recycling Center,YES,NO,YES,NO,NO,,NO,NO,,2 Green Hill Lane,Rutland City,VT,05701,Rutland,,,,,(802)760-7651,,http://www.rcswd.com/comrecyc.html,1,2022/09/06 00:00:00+00,43.6050853733652,-72.9942262172699
463566.476744499,124619.736704716,155,RU623,Yes,RCSWD Regional Transfer Station,Hazardous Waste,YES,YES,YES,YES,YES,,YES,YES,,14 Gleason Road,Rutland City,VT,05701,Rutland,,,,,802-775-7209,,,1,2024/10/04 00:00:00+00,43.62090043,-72.95135624
462357.01990201,126281.879743118,157,RU681,Yes,Rutland Town Transfer Station,Transfer Station,YES,YES,YES,YES,YES,,YES,YES,,Post Rd,Rutland Town,VT,05701,Rutland,,,,,802-773-8901,,,1,2023/10/04 00:00:00+00,43.63583496,-72.96645484
473088.44051627,113975.631070648,158,RU781,Yes,Shrewsbury Drop Off,Transfer Station,YES,YES,YES,YES,YES,,YES,YES,scrap metal,130 Mountain School Road,Shrewsbury,VT,05738,Rutland,,,,,802-492-3511,,,1,2023/04/19 00:00:00+00,43.52546432,-72.83294037
455643.547216262,105524.211993013,159,RU801,Yes,Tinmouth Transfer Station,Transfer Station,YES,YES,YES,YES,YES,,YES,YES,,537 Route 140,Tinmouth,VT,05773,Rutland,,,,,802-446-2498,,,1,2023/10/04 00:00:00+00,43.44856383,-73.04801308
460967.469008555,107924.421253132,160,RU901,Yes,Wallingford Transfer Station,Transfer Station,YES,YES,YES,NO,YES,,NO,YES,,90 Waldo Ln,Wallingford,VT,05773,Rutland,,,,,802-446-2524,,https://www.wallingfordvt.com/transfer-station/,1,2021/05/26 00:00:00+00,43.4704871714911,-72.9823923110962
440639.379708689,104095.21769148,161,RU921,Yes,Wells Transfer Station,Transfer Station,YES,YES,NO,NO,YES,,NO,NO,,174 Bullfrog Hollow Road,Wells,VT,05774,Rutland,,,,,802-645-0486,,,1,2022/09/21 00:00:00+00,43.43468691,-73.23315717
455466.660977035,121579.915481038,162,RU934,Yes,West Rutland Recycling Facility,Recycling Center,YES,NO,NO,NO,NO,,NO,NO,,265 Ross Street,West Rutland,VT,05777,Rutland,,,,,802-223-7221,,http://www.rcswd.com/dttshl.html,1,,43.593079,-73.051506
501567.46596139,185629.343929416,164,WA080,Yes,Wilson Industrial Park,Transfer Station,YES,YES,NO,NO,YES,,NO,NO,,109 Pitman Rd,Barre Town,VT,00000,Washington,,,,,802-775-7722,,,1,2021/09/02 00:00:00+00,44.17093794,-72.48036135
496092.723719168,191330.371336988,165,WA930,Yes,Budzyn Removal & Recycling,Recycling Center,NO,NO,NO,NO,NO,,NO,NO,tires only,937 Rt 302,Berlin,VT,05602,Washington,,,,,802-371-7653,,,1,2022/05/24 00:00:00+00,44.22215023,-72.54889803
513608.562456556,210043.927152402,166,WA320,Yes,Cabot Recycling Depot,Recycling Center,YES,YES,YES,YES,YES,,NO,NO,,153 Sawmill Rd,Cabot,VT,05647,Washington,,,,,802-626-3532,,,1,2023/07/27 00:00:00+00,44.39051573,-72.32924767
504518.742404864,208375.676704741,167,WA300,Yes,Calais Depot,Recycling Center,YES,NO,NO,NO,NO,,NO,NO,,Moscow Woods Rd,Calais,VT,05648,Washington,,,,,802-456-8720,,,1,2023/07/27 00:00:00+00,44.37562698,-72.4432919
500239.428831502,199029.363776588,168,WA040,Yes,"Vermont Compost Company, Fairmont Farms",Food Scraps Management Facility,NO,NO,NO,NO,YES,,WOOD CHIPS ONLY,NO,,1996 Main Street,East Montpelier,VT,05602,Washington,,,,,802-223-6049,,www.vermontcompost.com,1,2022/11/10 00:00:00+00,44.2915409700936,-72.496976852417
499496.766243717,193384.8144243,170,WA111,Yes,CV Landfill Transfer Facility,Transfer Station,YES,YES,YES,NO,YES,,YES,YES,,418 U.S. 2,East Montpelier,VT,05651,Washington,,,,,802-651-5454,,,1,2024/09/19 00:00:00+00,44.2406950147528,-72.5062572956085
496357.651019774,193574.69845859,173,N/A,No,DJ's Convenience,Recycling Center,YES,YES,NO,NO,YES,,NO,NO,,378 East Montpelier Rd,Montpelier,VT,05602,Washington,,,,,,,,1,,44.242394,-72.545624
496365.638627237,193574.694028134,174,WA444,Yes,Montpelier Drop-Off & Recycling (Casella),Transfer Station,YES,YES,YES,NO,YES,,NO,NO,,378 East Montpelier Road,Montpelier,VT,05602,Washington,,,,,802-223-7221,,,1,2019/11/05 00:00:00+00,44.242415,-72.545473
487410.225246201,184563.423094619,176,WA561,Yes,Northfield Transfer Station & Recycling Depot,Transfer Station,YES,YES,YES,NO,YES,,NO,NO,,69 Dog River Rd,Northfield,VT,05663,Washington,,,,,802-485-6121,,,1,2022/10/31 00:00:00+00,44.16123711,-72.65743375
473404.60728446,184582.915613749,179,WA921,Yes,"Waitsfield Transfer Station, Inc.",Transfer Station,YES,YES,YES,NO,YES,YES,YES,YES,,6911 Main Street,Waitsfield,VT,05673,Washington,,,,,802-223-7221,,,1,2021/12/22 00:00:00+00,44.160995,-72.832504
480458.957361921,203180.895300485,181,WA163,Yes,Waterbury RTR Center,Transfer Station,YES,YES,NO,NO,NO,YES,NO,NO,,1 River Road,Waterbury,VT,05676,Washington,,,,,802-244-7689,,,1,2024/09/19 00:00:00+00,44.32857155,-72.74499036
496437.447574852,208086.184349809,182,WA231,Yes,Lamoille District Transfer Station,Transfer Station,YES,YES,NO,NO,YES,YES,NO,NO,,43 Calais Rd,Worcester,VT,05682,Washington,,,,,802-223-6942,,,1,2022/10/31 00:00:00+00,44.37300627,-72.54473234
495609.227065874,36458.5860554087,185,WH970,Yes,Zaluzny Aggregate and Untreated,Recycling Center,NO,NO,NO,NO,NO,,YES,YES,"Asphalt, Brick and Concrete recycling with clean wood grinding for mulch",161 Mercury Drive,Brattleboro,VT,05301,Windham,,,,,802-254-5758,,,1,2022/10/20 00:00:00+00,42.82824053,-72.5537418
495879.835038636,37769.2288005382,187,WH082,Yes,Brattleboro Salvage Transfer Station,Transfer Station,YES,YES,NO,NO,YES,,YES,NO,,437 Vernon Street,Brattleboro,VT,05301,Windham,,,,,802-254-5388,,,1,2023/10/03 00:00:00+00,42.83998873,-72.55042113
496700.221572524,43800.7680845375,188,WH083,Yes,Windham Solid Waste Mgmt. District HHW Facility and Transfer Station,Hazardous Waste,YES,YES,YES,YES,YES,,YES,YES,,327 Old Ferry Road,Brattleboro,VT,05301,Windham,,,,,802-257-0272,,,1,2024/06/13 00:00:00+00,42.89428323,-72.54036011
488755.09906878,55062.3880345711,189,N/A,No,WSWMD -- Brookline Recycling Facility,Recycling Center,YES,NO,NO,NO,NO,,NO,NO,,Grassy Brook Rd,Brookline,VT,05345,Windham,,,,,,,,1,,42.99564854,-72.63785665
474041.263491346,47759.3052807591,190,WH181,Yes,Dover Drop Off,Transfer Station,YES,YES,YES,YES,YES,,NO,YES,,Landfill Road (town transfer station),Dover,VT,05341,Windham,,,,,802-464-5100,,,1,2024/02/07 00:00:00+00,42.92952459,-72.81800961
493919.103967411,48423.8931994971,191,N/A,No,WSWMD -- Dummerston Recycling Facility,,NO,NO,NO,NO,NO,,NO,NO,,1103 East-West Road,Dummerston,VT,05346,Windham,,,,,,,,1,,42.935944,-72.574463
493866.656973184,35360.17095974,192,WH070,Yes,Windham Solid Waste Management District,,NO,NO,NO,NO,NO,,NO,NO,,rt 5,Guilford,VT,05301,Windham,,,,,802-257-0272,,,1,,42.8183137011177,-72.5750344991684
477222.567627859,66655.5982385041,194,WH301,Yes,Jamaica Transfer Station,Transfer Station,YES,YES,YES,YES,YES,,YES,YES,,17 Pikes Falls Rd,Jamaica,VT,05343,Windham,,,,,802-874-4274,,,1,2023/07/19 00:00:00+00,43.09966197,-72.77977446
476024.598914778,82457.2064357225,195,WH391,Yes,Londonderry Transfer Station,Transfer Station,YES,YES,NO,NO,YES,,YES,YES,,7060 Route 100,Londonderry,VT,05148,Windham,,,,,802-824-3356,,,1,2023/07/19 00:00:00+00,43.241873360883,-72.7951741218567
481998.904208215,40957.4892776164,196,WH120,Yes,WSWMD -- Marlboro Recycling Facility,Recycling Center,YES,NO,NO,NO,NO,,NO,NO,,Rt 9 @ Elementary School,Marlboro,VT,05344,Windham,,,,,802-257-5122,,,1,,42.8684825793448,-72.720305621624
487152.778719256,52898.9714926623,197,WH130,Yes,Windham Solid Waste Management District,,NO,NO,NO,NO,NO,NO,NO,NO,,rt 30,Newfane,VT,05345,Windham,,,,,802-257-0272,,,1,2016/08/11 00:00:00+00,42.9761135,-72.65751761
498099.140741635,51854.0773147124,198,WH140,Yes,WSWMD -- Putney Recycling Facility,,NO,NO,NO,NO,NO,,NO,NO,,14 Main Street,Putney,VT,05346,Windham,,,,,802-257-0272,,,1,2017/01/05 00:00:00+00,42.966846,-72.5232544
468807.734779558,61900.7641404223,199,WH960,Yes,Stratton Transfer Station,Transfer Station,YES,YES,NO,YES,YES,,YES,NO,,8 Town Garage Road,Stratton,VT,05155,Windham,,,,,802-896-6184,,,1,2021/04/20 00:00:00+00,43.05657309,-72.8828595
486909.845424761,62353.1533664413,200,WH421,Yes,Townshend Transfer Station,Transfer Station,YES,YES,NO,YES,NO,,YES,NO,,1102 Grafton Road,Townshend,VT,05353,Windham,,,,,802-365-7300,,,1,2024/02/07 00:00:00+00,43.06123467,-72.66074486
499042.330953475,29103.4413860274,201,WH170,Yes, WSWMD -- Vernon Drop-Off,,NO,NO,NO,NO,NO,NO,NO,NO,,2585 Fort Bridgman Road,Vernon,VT,05354,Windham,,,,,802-257-0292,,http://www.windhamsolidwaste.org/index.php/recycling/where-to-recycle,1,2018/08/21 00:00:00+00,42.762019,-72.511676
476327.328571033,59670.9868434833,202,WH891,Yes,Wardsboro Transfer Station,Transfer Station,YES,YES,YES,YES,YES,,NO,NO,,77 Dump Road,Wardsboro,VT,05355,Windham,,,,,802-896-6055,,,1,2021/04/20 00:00:00+00,43.036765,-72.790474
505135.403862249,68374.7657340353,204,WH100,Yes,Rockingham/Westminster Transfer Station,Transfer Station,YES,YES,YES,NO,YES,,NO,YES,,7446 Rt 5,Westminster,VT,05158,Windham,,,,,802-463-3964,,,1,2021/04/14 00:00:00+00,43.11552545,-72.43685261
467473.155071634,31168.417389143,205,WH921,Yes,Whitingham Transfer Station,Transfer Station,YES,YES,YES,NO,NO,,NO,NO,,rt 100,Whitingham,VT,05361,Windham,,,,,802-368-7876,,,1,2022/09/13 00:00:00+00,42.77991976,-72.89746213
475259.781057819,43833.3792621249,206,WH941,Yes,Wilmington Transfer Station,Transfer Station,YES,YES,NO,NO,YES,YES,NO,NO,,Miller Road,Wilmington,VT,05363,Windham,,,,,802-464-8591,,,1,2022/10/20 00:00:00+00,42.8942,-72.8029
488201.564546117,134641.400716382,207,WS051,Yes,Barnard Transfer Station,Transfer Station,YES,YES,NO,NO,NO,,NO,NO,,Chateauguay Road,Barnard,VT,05031,Windsor,,,,,802-234-9211,,,1,2023/10/04 00:00:00+00,43.71187718,-72.64637875
487328.968102815,120677.496890137,208,WS080,Yes,Bridgewater Drop Off,Transfer Station,YES,YES,NO,NO,YES,,NO,NO,,65 Schoolhouse Rd,Bridgewater,VT,05034,Windsor,,,,,,,,1,2019/05/09 00:00:00+00,43.58618668,-72.65690731
491978.670767389,98617.2909541903,209,WS111,Yes,Cavendish Transfer Station,Transfer Station,YES,YES,YES,NO,YES,,NO,YES,,354 Route 131,Cavendish,VT,05142,Windsor,,,,,802-226-7291,,,1,2021/06/03 00:00:00+00,43.38774992,-72.59901541
509052.825345297,114838.896389237,211,WS990,Yes,D&D Excavating Recycling Facility,Recycling Center,NO,NO,NO,NO,NO,,NO,NO,"Asphalt, Brick and Concrete Only",19 Ferry Road,Hartland,Vt,05048,Windsor,,,,,802-436-1899,,,1,2018/07/18 00:00:00+00,43.53373079,-72.38795585
482610.348369494,97857.2247187436,212,WS331,Yes,Ludlow Transfer Station,Transfer Station,YES,YES,YES,NO,YES,,YES,YES,,336 Route 100,Ludlow,VT,05149,Windsor,,,,,802-228-2841,,,1,2023/07/19 00:00:00+00,43.38072155,-72.7146414
514009.51923119,144767.249824026,213,WS511,Yes,Norwich Transfer Station,Transfer Station,YES,YES,YES,YES,YES,,NO,YES,,24 New Boston Road,Norwich,VT,05055,Windsor,,,,,802-649-2209,,,1,2021/07/06 00:00:00+00,43.80298568,-72.32591676
482957.656527996,113421.212979204,214,WS950,Yes,A.B.L.E. Waste Management Inc Transfer Station,Transfer Station,YES,YES,NO,NO,YES,,NO,YES,,1515 Lynds Hill Road,Plymouth,VT,,Windsor,,,,,802-672-3569,,https://www.ablewastemanagement.com/,1,2023/08/25 00:00:00+00,43.52081422,-72.71084715
493814.698235438,147666.334084389,216,WS061,Yes,Bethel/Royalton Transfer Station,Transfer Station,YES,YES,YES,YES,YES,,YES,YES,,122 Waterman Road,Royalton,VT,05068,Windsor,P.O. Box 680,South Royalton,VT,05068,802-234-9340,,http://royaltonvt.com/about-royalton/transfer-station/,1,2024/08/27 00:00:00+00,43.8291555559511,-72.5769335031509
499375.404471437,90869.1928208083,217,WS090,Yes,Springfield Transfer Station and Recycling Center,Transfer Station,YES,YES,YES,NO,YES,NO,YES,YES,,135 Fairground Rd,Springfield,VT,05156,Windsor,,,,,802-885-5827 ,,www.springfieldvt.gov,1,2021/03/10 00:00:00+00,43.31804058,-72.50766824
498898.487720479,101112.292668945,218,WS921,Yes,Weathersfield Transfer Station,Transfer Station,YES,YES,YES,NO,YES,,NO,YES,,5024 Route 106,Weathersfield,VT,05151,Windsor,,,,,802-674-2626,,,1,2021/03/10 00:00:00+00,43.41019941,-72.51361963
511550.385248086,128941.409207377,219,WS305,Yes,"Northeast Waste Services, LTD Recycling Fac.",Recycling Center,YES,NO,NO,NO,NO,,NO,NO,Commercial Recycling only - no Residential drop-off,1544 Woodstock Rd,Hartford,VT,05001,Windsor,,,,,802-223-7221,,,1,2021/02/11 00:00:00+00,43.66055425,-72.3567745
511744.254154691,124175.488330104,220,WS280,Yes,Hartford Community Center for Recycling & Waste Management,Transfer Station,YES,YES,YES,NO,YES,YES,YES,YES,,2590 North Hartland Rd,Hartford,VT,05001,Windsor,,,,,,,,1,2020/09/16 00:00:00+00,43.61774187,-72.35450857
496937.156141412,43956.1799000004,222,WH083,Yes,Windham Solid Waste Management District Compost Facility,Food Scraps Management Facility,NO,NO,NO,NO,YES,,WOOD CHIPS ONLY,YES,,327 Old Ferry Road,Brattleboro,VT,05301,Windham,327 Old Ferry Road,Brattleboro,VT,05301,802-257-0272,,www.windhamsolidwaste.org,1,2024/06/13 00:00:00+00,42.8957269996745,-72.5374674797058
491819.145063866,160056.829760074,225,OG990,Yes,Vermont Tech Community Anaerobic Digester,,NO,NO,NO,NO,NO,NO,NO,NO,"Animal bedding and manure; food residuals & food processing residuals",165 Administrative Drive,Randolph Center,Vermont,05061,Orange,PO Box 500,Randolph Center,Vermont,05061,802-728-1894,mo'leary2@vtc.edu,http://digester.vtc.edu/,1,2019/03/20 00:00:00+00,43.940734,-72.601917
455801.565166054,120933.289927362,226,RU934,Yes,West Rutland Organics and Recycling Facility,,YES,YES,NO,NO,YES,YES,,YES,,442 Casella Lane,West Rutland,Vermont,05777,Rutland,,,,,802-438-2151,,http://www.casella.com/,1,,43.587289,-73.04734
499749.843904179,125909.491203904,227,N/A,No,ABLE Waste Fast Trash-Woodstock,Recycling Center,YES,YES,NO,NO,YES,,NO,NO,,512 Woodstock Rd,Woodstock,VT,05091,Windsor,,,,,,,,1,,43.63343,-72.503141
507451.07270262,116047.914283189,228,N/A,No,ABLE Waste Fast Trash-Hartland,Recycling Center,YES,YES,NO,NO,YES,,NO,NO,,57 VT Rte 12,Hartland,VT,05048,Windsor,,,,,,,,1,,43.544617,-72.407785
452175.844962843,244320.367950072,229,FR600,Yes,Georgia Recycling Center,Hazardous Waste,YES,YES,YES,YES,YES,YES,NO,NO,,158 Morse Dr,Georgia,VT,05454,Franklin,,,,,(802) 524-5986,,,1,2024/10/08 00:00:00+00,44.69747,-73.103358
460975.440762566,44099.5811985798,230,BN421,Yes,Searsburg Transfer Station,Transfer Station,YES,YES,YES,NO,YES,YES,YES,YES,,18 Town Garage Rd,Searsburg,VT,05363,Bennington,,,,,,,,1,2024/10/16 00:00:00+00,42.895995,-72.977793
439480.986844605,29657.344805391,231,BN490,Yes,TAM Materials Recovery Facility-Pownal,Transfer Station,YES,YES,YES,NO,YES,,NO,NO,,39 Church St,Pownal,VT,05261,Bennington,,,,,(802) 447-1300,,,1,2024/07/09 00:00:00+00,42.764634555641,-73.2394337654114
498865.091346578,189707.064442763,232,WA980,Yes,ARCC (Additional Recyclables Collection Center),Recycling Center,YES,NO,YES,NO,YES,NO,NO,NO,Hard to Recycle Materials Only,540 North Main St,Barre,VT,05641,Washington,,,,,802-476-1900,,http://www.cvswmd.org/arcc.html,1,2021/12/22 00:00:00+00,44.2076096390081,-72.5141510367393
495544.073778604,36858.5357029003,233,WH991,Yes,Goodenough Rubbish & Whipple Recycling,Transfer Station,YES,YES,YES,NO,YES,NO,NO,NO,,112 Mercury Dr,Brattleboro,VT,05301,Windham,,,,,802-257-4937,,,1,2023/10/03 00:00:00+00,42.8318048931131,-72.5545102357864
512901.621032416,122555.539642264,234,WS994,Yes,Greater Upper Valley Compost Facility,Food Scraps Management Facility,NO,NO,NO,NO,YES,NO,WOOD CHIPS ONLY,YES,,Quarry Rd,Hartland,VT,05052,Windsor,,,,,802-882-8154,,,1,2022/07/07 00:00:00+00,43.6031431258975,-72.3402070999146
453753.07160448,258644.510804716,235,FR530,Yes,Canusa Hershman Recycling,Recycling Center,YES,NO,YES,NO,NO,NO,NO,NO,,33 Rewes Dr,St. Albans,VT,05478,Franklin,,,,,(802) 527-1707,,,1,2024/03/26 00:00:00+00,44.8265193403783,-73.0848097801208
452480.121437263,160188.775934484,236,AD719,Yes,Salisbury Recycling and Landfill,Transfer Station,YES,YES,YES,NO,YES,YES,YES,YES,,1301 Upper Plains Rd,Salisbury,VT,05769,Addison,,,,,802-352-4228,,,1,,43.9403587981106,-73.091869354248
537458.346563444,237217.687653078,237,CA771,Yes,Sutton Recycling Center,Recycling Center,YES,YES,NO,NO,YES,NO,NO,NO,,95 Underpass Rd,Sutton,VT,,Caledonia,,,,,(802) 626-3532,,,1,,44.6341694734294,-72.0278906822205
490664.971289886,239727.342865603,238,,Yes,Lamoille Soil Compost Facility,Food Scraps Management Facility,NO,NO,NO,NO,YES,NO,WOOD CHIPS ONLY,YES,,Wilson Rd,Johnson,VT,,,,,,,,,,1,,44.657657,-72.617745
456157.811118418,146874.55748386,239,RU1002,Yes,Wyman Frasier Compost of Vermont,Food Scraps Management Facility,NO,NO,NO,NO,YES,NO,WOOD CHIPS ONLY,NO,,160 Wyman Road,Brandon,VT ,05733,Rutland,114 Wyman Road,Brandon ,VT,05733,802-247-5748,loggerbub@yahoo.com,,1,2022/07/12 00:00:00+00,43.820755,-73.045006
493415.696589368,76541.2609034185,240,,Yes,Grafton Categorical Disposal Facility,Recycling Center,NO,NO,NO,NO,NO,NO,YES,YES,,Tom Bell Rd,Grafton,Vermont,05146,Windham,,,,,,,,1,,43.189,-72.581
528500.044538725,215525.669464897,241,,Yes,Danville Categorical Disposal Facility,Recycling Center,NO,NO,NO,NO,NO,NO,YES,YES,,1182-1450 Bruce Badger Memorial Highway ,Danville,Vermont,05828,Caledonia,,,,,802-684-3352,,,1,,44.4393645295559,-72.1419834944427
542946.496789307,229239.680518049,242,,Yes,Lyndon Categorical Disposal Facility,Recycling Center,NO,NO,NO,NO,NO,NO,YES,YES,,2480 E Burke Rd, Lyndonville,Vermont,05851,Caledonia,,,,,(802)626-5834,,,1,,44.562054,-71.9593809
445832.551372813,166117.766367782,243,,Yes,Middlebury College Categorical Disposal Facility,Recycling Center,NO,NO,NO,NO,NO,NO,YES,YES,,South Street Extension,Middlebury,Vermont,05753,Addison,,,,,(802) 443-5003,,,1,,43.9932855871159,-73.1753272294998
450409.14396043,234087.72982869,247,CH990,Yes,Beaudoin Categorical Disposal Facility,Transfer Station,NO,NO,NO,NO,NO,,YES,NO,"Also accept stumps, decomposing wood, bituminous concrete, brick, concrete, masonry, mortar, porcela",262 Middle Road,Milton,Vermont,05446,Chittenden,,,,,(802) 893-4083,beaud1018@gmail.com,,1,2024/10/31 00:00:00+00,44.6053016236722,-73.1247138709072
513232.770398144,122489.524192601,248,,Yes,Greater Upper Valley Organics Transfer Station,Food Scraps Management Facility,NO,NO,NO,NO,YES,NO,NO,NO,Only accept food scraps from commercial haulers.,1360 Quarry Road,Hartland,VT,,,,,,,(802) 882-8154 ,,http://www.growcompost.com/,1,,43.60247,-72.33614
505853.64282699,84894.8072777207,249,WS995,Yes,Alva Waste Transfer Station,Transfer Station,YES,YES,NO,NO,YES,YES,YES,YES,,1080 Charlestown Road,Springfield,Vermont,05156,,176 Poppe Road,Springfield ,Vermont,05156,802-885-2994,alvawaste@vermontel.net,http://www.alvawaste.com/,1,2023/09/15 00:00:00+00,43.2641627185578,-72.4279140235678
447382.636396346,159282.807101279,250,AD853,Yes,"Goodrich Farm Anaerobic Digester, Salisbury",Food Scraps Management Facility,NO,NO,NO,NO,YES,NO,NO,NO,Only accepts specific non-residential materials. Contact Vanguard Renewables for details.,"Goodrich Farm, 592 Shard Villa Road",Salisbury,Vermont,,,,,,,781-232-7597,,,1,2021/06/25 00:00:00+00,43.9318760319099,-73.1553350793762
511992.209115006,125442.482083503,252,WS998,Yes,Sunrise Farms ,Food Scraps Management Facility,NO,NO,NO,NO,YES,NO,WOOD CHIPS ONLY,YES,Contact before visiting to see if willing to accept materials.,,,,,,1759 North Hartland Road,White River Junction,VT,,(802) 295-1456,chuck@sunrisefarmvt.com,,1,2022/04/21 00:00:00+00,43.62907,-72.3514019
519082.358555163,258517.566676092,253,OL350,Yes,Mar-Jo Acres Compost Facility ,Food Scraps Management Facility,NO,NO,NO,NO,YES,NO,WOOD CHIPS ONLY,YES,Contact before visiting to see if willing to accept materials.,1647 Covered Bridge Rd,Irasburg,VT,,,,,,,(802) 777-3790 ,,,1,2021/04/20 00:00:00+00,44.8266079,-72.2586514
443229.227285024,214621.6656416,254,CH030,Yes,PurposeEnergy Digester at Magic Hat Brewery,Food Scraps Management Facility,NO,NO,NO,NO,YES,NO,NO,NO,Only accepts specific non-residential materials. Contact PurposeEnergy for details.,5 Bartlett Bay Road,South Burlington,VT,,,,,,,617-224-8747,fitch@purposeenergy.com,,1,2022/01/19 00:00:00+00,44.4295725568768,-73.2130385091653
450057.96596279,218343.95813128,255,CH045,Yes,"All Cycle Waste, Inc. Depackager and Organics Transfer Station",Food Scraps Management Facility,NO,NO,NO,NO,YES,NO,NO,NO,"Only accepts specific non-residential materials. Contact Casella for details. View ""All Cycle Transf",220 Avenue B,Williston ,VT,05495,Chittenden,,,,,802-864-3615,,,1,2023/11/07 00:00:00+00,44.46355955,-73.12756489
505853.64282699,84894.8072777207,256,WS995,Yes,Alva Waste Organics Transfer Station,Food Scraps Management Facility,NO,NO,NO,NO,YES,NO,NO,NO,"See ""Alva Waste Transfer Station"" entry (recycling symbol on the map) for the list of other material",1080 Charlestown Road,Springfield,Vermont,05156,,176 Poppe Road,Springfield,Vermont,05156,802-885-2994,alvawaste@vermontel.net,http://www.alvawaste.com/,1,2023/09/15 00:00:00+00,43.2641538992718,-72.4278820637556
443664.456027709,221663.262987855,257,,Yes,McNeil Waste Wood Yard,,,,,,,,,,,111 Intervale Road,Burlington,VT,05401,,,,,,(802) 864-7446,,,1,,44.4930158,-73.2083268
478231.277582854,149076.782409418,258,WS070,Yes,Vermont Black Gold Compost,Food Scraps Management Facility,NO,NO,NO,NO,YES,NO,WOOD CHIPS ONLY,NO,Only accept food scraps from their hauling routes. ,1837 Jerusalem Hill,Rochester,VT,05767,,,,,,802-558-3213,,,1,2023/08/23 00:00:00+00,43.8415962,-72.7706727
478480.950216343,29092.4610407903,259,,Yes,Halifax Recycling Drop-Off,Recycling Center,YES,NO,NO,NO,NO,NO,NO,NO,Dual stream recycling only. Open 24/7. No other services. ,2044 Branch Rd,West Halifax,,,,,,,,802-368-7390,,halifaxvermont.com,1,,42.7616,-72.7629
494877.333789522,190231.192710657,260,,Yes,"""Proposed"" Central VT SWMD HHW Facility ",Hazardous Waste,,,,,,,,,,,,,,,,,,,,,,1,,44.2122899,-72.5641385
505853.652408274,84883.6978854988,261,,Yes,HHW Depot,Hazardous Waste,NO,NO,NO,YES,NO,NO,NO,NO,Accepts HHW and VSQG hazardous waste from Southern Windsor/Windham Counties and Greater Upper Valley,1050 Charlestown Road ,Springfield,VT,,,,,,,(802) 674-9235,,https://www.vtsolidwastedistrict.org/household-hazardous-waste.html,1,,43.264094,-72.4278798712985
450640.083197219,85393.9611417474,262,BN210,Yes,Dorset Farm Compost,Food Scraps Management Facility,NO,NO,NO,NO,YES,NO,WOOD CHIPS ONLY,YES,,4343 VT-30,Dorset,VT,05251,,,,,,802-858-4471,info@dorsetcompost.com,www.dorsetcompost.com,1,,43.2671164743673,-73.1080162525177
